[{"StationId":"5","StationName":"State St & Harrison St","Community":"The Loop","Latitude":"41.874","Longitude":"-87.6277","Frequency":"9914","Popularity":"47","Inflow":"5030","Outflow":"5116"},{"StationId":"13","StationName":"Wilton Ave & Diversey Pkwy","Community":"Lincoln Park","Latitude":"41.9325","Longitude":"-87.6527","Frequency":"7828","Popularity":"60","Inflow":"3705","Outflow":"4291"},{"StationId":"14","StationName":"Morgan St & 18th St","Community":"Lower West Side","Latitude":"41.8581","Longitude":"-87.6511","Frequency":"2824","Popularity":"150","Inflow":"1521","Outflow":"1448"},{"StationId":"15","StationName":"Racine Ave & 18th St","Community":"Lower West Side","Latitude":"41.8582","Longitude":"-87.6565","Frequency":"3245","Popularity":"139","Inflow":"1689","Outflow":"1652"},{"StationId":"16","StationName":"Wood St & North Ave","Community":"West Town","Latitude":"41.9103","Longitude":"-87.6725","Frequency":"3295","Popularity":"137","Inflow":"1737","Outflow":"1627"},{"StationId":"17","StationName":"Wood St & Division St","Community":"West Town","Latitude":"41.9033","Longitude":"-87.6727","Frequency":"5526","Popularity":"87","Inflow":"2750","Outflow":"2894"},{"StationId":"19","StationName":"Loomis St & Taylor St","Community":"Near West Side","Latitude":"41.8694","Longitude":"-87.661","Frequency":"3649","Popularity":"125","Inflow":"1845","Outflow":"1902"},{"StationId":"20","StationName":"Sheffield Ave & Kingsbury St","Community":"Near North Side","Latitude":"41.9096","Longitude":"-87.6535","Frequency":"5698","Popularity":"83","Inflow":"2747","Outflow":"3027"},{"StationId":"21","StationName":"Aberdeen St & Jackson Blvd","Community":"Near West Side","Latitude":"41.8777","Longitude":"-87.6548","Frequency":"5242","Popularity":"97","Inflow":"2774","Outflow":"2574"},{"StationId":"22","StationName":"May St & Taylor St","Community":"Near West Side","Latitude":"41.8695","Longitude":"-87.6555","Frequency":"4273","Popularity":"109","Inflow":"2215","Outflow":"2296"},{"StationId":"23","StationName":"Orleans St & Elm St","Community":"Near North Side","Latitude":"41.9029","Longitude":"-87.6377","Frequency":"3953","Popularity":"118","Inflow":"2007","Outflow":"2022"},{"StationId":"24","StationName":"Fairbanks Ct & Grand Ave","Community":"Near North Side","Latitude":"41.8919","Longitude":"-87.6206","Frequency":"13432","Popularity":"23","Inflow":"6870","Outflow":"6985"},{"StationId":"25","StationName":"Michigan Ave & Pearson St","Community":"Near North Side","Latitude":"41.8977","Longitude":"-87.6235","Frequency":"16523","Popularity":"13","Inflow":"8487","Outflow":"8632"},{"StationId":"26","StationName":"McClurg Ct & Illinois St","Community":"Near North Side","Latitude":"41.891","Longitude":"-87.6173","Frequency":"21371","Popularity":"7","Inflow":"10847","Outflow":"11528"},{"StationId":"27","StationName":"Larrabee St & North Ave","Community":"Near North Side","Latitude":"41.9102","Longitude":"-87.6435","Frequency":"2819","Popularity":"151","Inflow":"1420","Outflow":"1485"},{"StationId":"28","StationName":"Larrabee St & Menomonee St","Community":"Lincoln Park","Latitude":"41.9147","Longitude":"-87.6433","Frequency":"3947","Popularity":"119","Inflow":"2078","Outflow":"2100"},{"StationId":"29","StationName":"Noble St & Milwaukee Ave","Community":"West Town","Latitude":"41.9007","Longitude":"-87.6626","Frequency":"5317","Popularity":"93","Inflow":"2672","Outflow":"2773"},{"StationId":"30","StationName":"Ashland Ave & Augusta Blvd","Community":"West Town","Latitude":"41.8996","Longitude":"-87.6677","Frequency":"4038","Popularity":"115","Inflow":"2082","Outflow":"2040"},{"StationId":"31","StationName":"Franklin St & Chicago Ave","Community":"Near North Side","Latitude":"41.8968","Longitude":"-87.6356","Frequency":"10131","Popularity":"45","Inflow":"5200","Outflow":"5076"},{"StationId":"32","StationName":"Racine Ave & Congress Pkwy","Community":"Near West Side","Latitude":"41.8746","Longitude":"-87.657","Frequency":"3371","Popularity":"132","Inflow":"1851","Outflow":"1610"},{"StationId":"33","StationName":"State St & Van Buren St","Community":"The Loop","Latitude":"41.8772","Longitude":"-87.6278","Frequency":"11566","Popularity":"38","Inflow":"5983","Outflow":"5823"},{"StationId":"34","StationName":"Cannon Dr & Fullerton Ave","Community":"Lincoln Park","Latitude":"41.9268","Longitude":"-87.6344","Frequency":"11908","Popularity":"34","Inflow":"6182","Outflow":"6593"},{"StationId":"35","StationName":"Streeter Dr & Illinois St","Community":"Near North Side","Latitude":"41.8911","Longitude":"-87.6122","Frequency":"33686","Popularity":"1","Inflow":"16710","Outflow":"18544"},{"StationId":"36","StationName":"Franklin St & Jackson Blvd","Community":"The Loop","Latitude":"41.8777","Longitude":"-87.6353","Frequency":"18702","Popularity":"10","Inflow":"9784","Outflow":"9189"},{"StationId":"37","StationName":"Dearborn St & Adams St","Community":"The Loop","Latitude":"41.8794","Longitude":"-87.6298","Frequency":"15055","Popularity":"20","Inflow":"8112","Outflow":"7214"},{"StationId":"42","StationName":"Wabash Ave & Cermak Rd","Community":"Near South Side","Latitude":"41.8532","Longitude":"-87.6253","Frequency":"3481","Popularity":"129","Inflow":"1815","Outflow":"1811"},{"StationId":"43","StationName":"Michigan Ave & Washington St","Community":"The Loop","Latitude":"41.8839","Longitude":"-87.6246","Frequency":"16292","Popularity":"15","Inflow":"8629","Outflow":"8102"},{"StationId":"44","StationName":"State St & Randolph St","Community":"The Loop","Latitude":"41.8847","Longitude":"-87.6277","Frequency":"12875","Popularity":"26","Inflow":"6879","Outflow":"6298"},{"StationId":"45","StationName":"Michigan Ave & Congress Pkwy","Community":"The Loop","Latitude":"41.8761","Longitude":"-87.6244","Frequency":"12344","Popularity":"31","Inflow":"6474","Outflow":"6425"},{"StationId":"46","StationName":"Wells St & Walton St","Community":"Near North Side","Latitude":"41.8999","Longitude":"-87.6344","Frequency":"6100","Popularity":"76","Inflow":"3288","Outflow":"2934"},{"StationId":"47","StationName":"State St & Kinzie St","Community":"Near North Side","Latitude":"41.8892","Longitude":"-87.6277","Frequency":"16187","Popularity":"18","Inflow":"7930","Outflow":"8571"},{"StationId":"48","StationName":"Larrabee St & Kingsbury St","Community":"Near North Side","Latitude":"41.8978","Longitude":"-87.6429","Frequency":"12661","Popularity":"27","Inflow":"6354","Outflow":"6443"},{"StationId":"49","StationName":"Dearborn St & Monroe St","Community":"The Loop","Latitude":"41.8813","Longitude":"-87.6295","Frequency":"15061","Popularity":"19","Inflow":"7989","Outflow":"7232"},{"StationId":"50","StationName":"Clark St & Congress Pkwy","Community":"The Loop","Latitude":"41.8759","Longitude":"-87.6306","Frequency":"9824","Popularity":"48","Inflow":"5055","Outflow":"4878"},{"StationId":"51","StationName":"Clark St & Randolph St","Community":"The Loop","Latitude":"41.8846","Longitude":"-87.6319","Frequency":"14113","Popularity":"21","Inflow":"7280","Outflow":"7009"},{"StationId":"52","StationName":"Michigan Ave & Lake St","Community":"The Loop","Latitude":"41.886","Longitude":"-87.6241","Frequency":"20566","Popularity":"8","Inflow":"10760","Outflow":"10463"},{"StationId":"53","StationName":"Wells St & Erie St","Community":"Near North Side","Latitude":"41.8938","Longitude":"-87.6342","Frequency":"11329","Popularity":"39","Inflow":"5918","Outflow":"5604"},{"StationId":"54","StationName":"Ogden Ave & Chicago Ave","Community":"West Town","Latitude":"41.8964","Longitude":"-87.6541","Frequency":"5045","Popularity":"100","Inflow":"2561","Outflow":"2566"},{"StationId":"55","StationName":"Halsted St & James M Rochford St","Community":"Near West Side","Latitude":"41.8659","Longitude":"-87.6466","Frequency":"3354","Popularity":"133","Inflow":"1804","Outflow":"1681"},{"StationId":"56","StationName":"Desplaines St & Kinzie St","Community":"Near West Side","Latitude":"41.8887","Longitude":"-87.6444","Frequency":"11246","Popularity":"42","Inflow":"5879","Outflow":"5539"},{"StationId":"57","StationName":"Clinton St & Roosevelt Rd","Community":"Near West Side","Latitude":"41.8671","Longitude":"-87.6411","Frequency":"4950","Popularity":"101","Inflow":"2329","Outflow":"2705"},{"StationId":"58","StationName":"Marshfield Ave & Cortland St","Community":"Logan Square","Latitude":"41.916","Longitude":"-87.6689","Frequency":"7123","Popularity":"65","Inflow":"3752","Outflow":"3445"},{"StationId":"59","StationName":"Wabash Ave & Roosevelt Rd","Community":"The Loop","Latitude":"41.8682","Longitude":"-87.6263","Frequency":"16193","Popularity":"17","Inflow":"8059","Outflow":"8637"},{"StationId":"60","StationName":"Dayton St & North Ave","Community":"Near North Side","Latitude":"41.9106","Longitude":"-87.6494","Frequency":"8118","Popularity":"56","Inflow":"4054","Outflow":"4248"},{"StationId":"61","StationName":"Wood St & Milwaukee Ave","Community":"West Town","Latitude":"41.9077","Longitude":"-87.6726","Frequency":"5368","Popularity":"91","Inflow":"2604","Outflow":"2869"},{"StationId":"62","StationName":"McCormick Place","Community":"Near South Side","Latitude":"41.8514","Longitude":"-87.6188","Frequency":"7429","Popularity":"62","Inflow":"4065","Outflow":"3878"},{"StationId":"66","StationName":"Clinton St & Lake St","Community":"Near West Side","Latitude":"41.8858","Longitude":"-87.6414","Frequency":"12163","Popularity":"32","Inflow":"6327","Outflow":"5981"},{"StationId":"67","StationName":"Sheffield Ave & Fullerton Ave","Community":"Lincoln Park","Latitude":"41.9256","Longitude":"-87.6537","Frequency":"11743","Popularity":"35","Inflow":"5962","Outflow":"6078"},{"StationId":"68","StationName":"Clinton St & Tilden St","Community":"Near West Side","Latitude":"41.8759","Longitude":"-87.6408","Frequency":"4238","Popularity":"111","Inflow":"2249","Outflow":"2063"},{"StationId":"69","StationName":"Damen Ave & Pierce Ave","Community":"West Town","Latitude":"41.9094","Longitude":"-87.6777","Frequency":"11295","Popularity":"40","Inflow":"5401","Outflow":"6163"},{"StationId":"71","StationName":"Morgan St & Lake St","Community":"Near West Side","Latitude":"41.8855","Longitude":"-87.6523","Frequency":"5859","Popularity":"79","Inflow":"3043","Outflow":"2917"},{"StationId":"72","StationName":"State St & 16th St","Community":"Near South Side","Latitude":"41.8601","Longitude":"-87.6277","Frequency":"5845","Popularity":"81","Inflow":"2846","Outflow":"3163"},{"StationId":"73","StationName":"Jefferson St & Monroe St","Community":"Near West Side","Latitude":"41.8804","Longitude":"-87.6427","Frequency":"7909","Popularity":"58","Inflow":"4285","Outflow":"3785"},{"StationId":"74","StationName":"Kingsbury St & Erie St","Community":"Near North Side","Latitude":"41.8938","Longitude":"-87.6419","Frequency":"11271","Popularity":"41","Inflow":"5977","Outflow":"5552"},{"StationId":"75","StationName":"Canal St & Jackson Blvd","Community":"Near West Side","Latitude":"41.8781","Longitude":"-87.64","Frequency":"20051","Popularity":"9","Inflow":"10141","Outflow":"10114"},{"StationId":"76","StationName":"Lake Shore Dr & Monroe St","Community":"The Loop","Latitude":"41.881","Longitude":"-87.6167","Frequency":"29029","Popularity":"3","Inflow":"15673","Outflow":"15457"},{"StationId":"77","StationName":"Clinton St & Madison St","Community":"Near West Side","Latitude":"41.8816","Longitude":"-87.6413","Frequency":"16286","Popularity":"16","Inflow":"8327","Outflow":"8142"},{"StationId":"80","StationName":"Aberdeen St & Madison St","Community":"Near West Side","Latitude":"41.8815","Longitude":"-87.6548","Frequency":"8538","Popularity":"54","Inflow":"4175","Outflow":"4522"},{"StationId":"81","StationName":"Daley Center Plaza","Community":"The Loop","Latitude":"41.8842","Longitude":"-87.6296","Frequency":"16492","Popularity":"14","Inflow":"8810","Outflow":"7995"},{"StationId":"84","StationName":"Green St & Milwaukee Ave","Community":"West Town","Latitude":"41.8917","Longitude":"-87.6487","Frequency":"4318","Popularity":"108","Inflow":"2238","Outflow":"2127"},{"StationId":"85","StationName":"Michigan Ave & Oak St","Community":"Near North Side","Latitude":"41.901","Longitude":"-87.6238","Frequency":"25763","Popularity":"5","Inflow":"13274","Outflow":"14342"},{"StationId":"86","StationName":"Eckhart Park","Community":"West Town","Latitude":"41.8964","Longitude":"-87.661","Frequency":"3860","Popularity":"120","Inflow":"1929","Outflow":"2007"},{"StationId":"87","StationName":"Racine Ave & Fullerton Ave","Community":"Lincoln Park","Latitude":"41.9256","Longitude":"-87.6584","Frequency":"4807","Popularity":"103","Inflow":"2498","Outflow":"2452"},{"StationId":"88","StationName":"May St & Randolph St","Community":"Near West Side","Latitude":"41.884","Longitude":"-87.6557","Frequency":"5861","Popularity":"78","Inflow":"3053","Outflow":"2886"},{"StationId":"90","StationName":"Millennium Park","Community":"The Loop","Latitude":"41.881","Longitude":"-87.6241","Frequency":"33666","Popularity":"2","Inflow":"17272","Outflow":"18395"},{"StationId":"91","StationName":"Clinton St & Washington Blvd","Community":"Near West Side","Latitude":"41.8834","Longitude":"-87.6412","Frequency":"28745","Popularity":"4","Inflow":"14967","Outflow":"13898"},{"StationId":"92","StationName":"Carpenter St & Huron St","Community":"West Town","Latitude":"41.8946","Longitude":"-87.6535","Frequency":"3004","Popularity":"148","Inflow":"1552","Outflow":"1532"},{"StationId":"93","StationName":"Sheffield Ave & Willow St","Community":"Lincoln Park","Latitude":"41.9137","Longitude":"-87.6529","Frequency":"5247","Popularity":"96","Inflow":"2675","Outflow":"2668"},{"StationId":"94","StationName":"Clark St & Armitage Ave","Community":"Lincoln Park","Latitude":"41.9183","Longitude":"-87.6363","Frequency":"12038","Popularity":"33","Inflow":"6093","Outflow":"6354"},{"StationId":"97","StationName":"Museum Campus","Community":"Near South Side","Latitude":"41.8652","Longitude":"-87.6178","Frequency":"24694","Popularity":"6","Inflow":"12676","Outflow":"13581"},{"StationId":"98","StationName":"LaSalle St & Washington St","Community":"The Loop","Latitude":"41.8827","Longitude":"-87.6325","Frequency":"9255","Popularity":"51","Inflow":"5126","Outflow":"4229"},{"StationId":"99","StationName":"Lake Shore Dr & Ohio St","Community":"Near North Side","Latitude":"41.8926","Longitude":"-87.6145","Frequency":"13032","Popularity":"24","Inflow":"6907","Outflow":"6956"},{"StationId":"100","StationName":"Orleans St & Merchandise Mart Plaza","Community":"Near North Side","Latitude":"41.8882","Longitude":"-87.6364","Frequency":"12549","Popularity":"29","Inflow":"6134","Outflow":"6551"},{"StationId":"106","StationName":"State St & Pearson St","Community":"Near North Side","Latitude":"41.8974","Longitude":"-87.6287","Frequency":"4820","Popularity":"102","Inflow":"2391","Outflow":"2519"},{"StationId":"108","StationName":"Halsted St & Polk St","Community":"Near West Side","Latitude":"41.8718","Longitude":"-87.6466","Frequency":"4148","Popularity":"112","Inflow":"2084","Outflow":"2097"},{"StationId":"109","StationName":"900 W Harrison","Community":"Near West Side","Latitude":"41.8747","Longitude":"-87.65","Frequency":"3063","Popularity":"144","Inflow":"1616","Outflow":"1500"},{"StationId":"110","StationName":"State St & Erie St","Community":"Near North Side","Latitude":"41.894","Longitude":"-87.6286","Frequency":"12618","Popularity":"28","Inflow":"6229","Outflow":"6592"},{"StationId":"111","StationName":"Sedgwick St & Huron St","Community":"Near North Side","Latitude":"41.8947","Longitude":"-87.6384","Frequency":"4263","Popularity":"110","Inflow":"2275","Outflow":"2055"},{"StationId":"112","StationName":"Green St & Randolph St","Community":"Near West Side","Latitude":"41.8841","Longitude":"-87.6487","Frequency":"5450","Popularity":"89","Inflow":"2727","Outflow":"2830"},{"StationId":"113","StationName":"Bissell St & Armitage Ave","Community":"Lincoln Park","Latitude":"41.9184","Longitude":"-87.6522","Frequency":"3222","Popularity":"141","Inflow":"1598","Outflow":"1672"},{"StationId":"114","StationName":"Sheffield Ave & Addison St","Community":"Lake View","Latitude":"41.9469","Longitude":"-87.6544","Frequency":"6524","Popularity":"69","Inflow":"3215","Outflow":"3478"},{"StationId":"115","StationName":"Sheffield Ave & Wellington Ave","Community":"Lake View","Latitude":"41.9363","Longitude":"-87.6536","Frequency":"6914","Popularity":"68","Inflow":"3440","Outflow":"3666"},{"StationId":"116","StationName":"Western Ave & Winnebago Ave","Community":"Logan Square","Latitude":"41.9155","Longitude":"-87.687","Frequency":"2316","Popularity":"168","Inflow":"1152","Outflow":"1212"},{"StationId":"117","StationName":"Wilton Ave & Belmont Ave","Community":"Lake View","Latitude":"41.9402","Longitude":"-87.653","Frequency":"5120","Popularity":"99","Inflow":"2651","Outflow":"2530"},{"StationId":"118","StationName":"Sedgwick St & North Ave","Community":"Lincoln Park","Latitude":"41.9106","Longitude":"-87.6386","Frequency":"5812","Popularity":"82","Inflow":"3055","Outflow":"2850"},{"StationId":"119","StationName":"Ashland Ave & Lake St","Community":"Near West Side","Latitude":"41.8854","Longitude":"-87.6673","Frequency":"1743","Popularity":"196","Inflow":"877","Outflow":"913"},{"StationId":"120","StationName":"Wentworth Ave & Archer Ave","Community":"Armour Square","Latitude":"41.8546","Longitude":"-87.6319","Frequency":"2673","Popularity":"157","Inflow":"1302","Outflow":"1457"},{"StationId":"121","StationName":"Blackstone Ave & Hyde Park Blvd","Community":"Hyde Park","Latitude":"41.8026","Longitude":"-87.5904","Frequency":"1603","Popularity":"199","Inflow":"856","Outflow":"799"},{"StationId":"122","StationName":"Ogden Ave & Congress Pkwy","Community":"Near West Side","Latitude":"41.875","Longitude":"-87.6733","Frequency":"1877","Popularity":"190","Inflow":"962","Outflow":"959"},{"StationId":"123","StationName":"California Ave & Milwaukee Ave","Community":"Logan Square","Latitude":"41.9227","Longitude":"-87.6972","Frequency":"5541","Popularity":"86","Inflow":"2730","Outflow":"2979"},{"StationId":"124","StationName":"Damen Ave & Cullerton St","Community":"Lower West Side","Latitude":"41.855","Longitude":"-87.6757","Frequency":"744","Popularity":"263","Inflow":"367","Outflow":"401"},{"StationId":"126","StationName":"Clark St & North Ave","Community":"Near North Side","Latitude":"41.912","Longitude":"-87.6319","Frequency":"13491","Popularity":"22","Inflow":"6687","Outflow":"7126"},{"StationId":"127","StationName":"Lincoln Ave & Fullerton Ave","Community":"Lincoln Park","Latitude":"41.9259","Longitude":"-87.6493","Frequency":"685","Popularity":"266","Inflow":"351","Outflow":"342"},{"StationId":"128","StationName":"Damen Ave & Chicago Ave","Community":"West Town","Latitude":"41.8958","Longitude":"-87.6772","Frequency":"5334","Popularity":"92","Inflow":"2545","Outflow":"2892"},{"StationId":"129","StationName":"Blue Island Ave & 18th St","Community":"Lower West Side","Latitude":"41.8576","Longitude":"-87.6615","Frequency":"2172","Popularity":"171","Inflow":"1162","Outflow":"1073"},{"StationId":"130","StationName":"Damen Ave & Division St","Community":"West Town","Latitude":"41.9033","Longitude":"-87.6769","Frequency":"6127","Popularity":"75","Inflow":"3187","Outflow":"3037"},{"StationId":"131","StationName":"Lincoln Ave & Belmont Ave","Community":"Lake View","Latitude":"41.9394","Longitude":"-87.6684","Frequency":"1245","Popularity":"226","Inflow":"590","Outflow":"662"},{"StationId":"132","StationName":"Wentworth Ave & 24th St","Community":"Armour Square","Latitude":"41.8492","Longitude":"-87.6317","Frequency":"325","Popularity":"290","Inflow":"157","Outflow":"178"},{"StationId":"134","StationName":"Peoria St & Jackson Blvd","Community":"Near West Side","Latitude":"41.8778","Longitude":"-87.6496","Frequency":"7391","Popularity":"63","Inflow":"3801","Outflow":"3686"},{"StationId":"135","StationName":"Halsted St & 21st St","Community":"Lower West Side","Latitude":"41.8538","Longitude":"-87.6467","Frequency":"1024","Popularity":"243","Inflow":"518","Outflow":"549"},{"StationId":"136","StationName":"Racine Ave & 13th St","Community":"Near West Side","Latitude":"41.8651","Longitude":"-87.657","Frequency":"561","Popularity":"272","Inflow":"264","Outflow":"311"},{"StationId":"137","StationName":"Morgan Ave & 14th Pl","Community":"Near West Side","Latitude":"41.8624","Longitude":"-87.6511","Frequency":"2894","Popularity":"149","Inflow":"1537","Outflow":"1431"},{"StationId":"138","StationName":"Clybourn Ave & Division St","Community":"Near North Side","Latitude":"41.9045","Longitude":"-87.6405","Frequency":"2678","Popularity":"156","Inflow":"1393","Outflow":"1318"},{"StationId":"140","StationName":"Dearborn Pkwy & Delaware Pl","Community":"Near North Side","Latitude":"41.899","Longitude":"-87.6299","Frequency":"10064","Popularity":"46","Inflow":"4953","Outflow":"5357"},{"StationId":"141","StationName":"Clark St & Lincoln Ave","Community":"Lincoln Park","Latitude":"41.9157","Longitude":"-87.6346","Frequency":"9519","Popularity":"49","Inflow":"4864","Outflow":"4858"},{"StationId":"143","StationName":"Sedgwick St & Webster Ave","Community":"Lincoln Park","Latitude":"41.922","Longitude":"-87.6385","Frequency":"7850","Popularity":"59","Inflow":"3936","Outflow":"4096"},{"StationId":"144","StationName":"Larrabee St & Webster Ave","Community":"Lincoln Park","Latitude":"41.9217","Longitude":"-87.644","Frequency":"6255","Popularity":"72","Inflow":"3224","Outflow":"3227"},{"StationId":"146","StationName":"Loomis St & Jackson Blvd","Community":"Near West Side","Latitude":"41.8779","Longitude":"-87.662","Frequency":"1985","Popularity":"186","Inflow":"985","Outflow":"1061"},{"StationId":"147","StationName":"Indiana Ave & 26th St","Community":"Douglas","Latitude":"41.8457","Longitude":"-87.6225","Frequency":"1274","Popularity":"223","Inflow":"733","Outflow":"614"},{"StationId":"148","StationName":"State St & 33rd St","Community":"Douglas","Latitude":"41.8347","Longitude":"-87.6258","Frequency":"1125","Popularity":"235","Inflow":"584","Outflow":"585"},{"StationId":"149","StationName":"Calumet Ave & 33rd St","Community":"Douglas","Latitude":"41.8349","Longitude":"-87.6179","Frequency":"1333","Popularity":"220","Inflow":"764","Outflow":"651"},{"StationId":"150","StationName":"Fort Dearborn Dr & 31st St","Community":"Douglas","Latitude":"41.8386","Longitude":"-87.6082","Frequency":"6139","Popularity":"74","Inflow":"3464","Outflow":"3462"},{"StationId":"152","StationName":"Lincoln Ave & Diversey Pkwy","Community":"Lincoln Park","Latitude":"41.9322","Longitude":"-87.6586","Frequency":"4139","Popularity":"113","Inflow":"2174","Outflow":"2013"},{"StationId":"153","StationName":"Southport Ave & Wellington Ave","Community":"Lake View","Latitude":"41.9357","Longitude":"-87.6636","Frequency":"6304","Popularity":"71","Inflow":"3197","Outflow":"3225"},{"StationId":"154","StationName":"Southport Ave & Belmont Ave","Community":"Lake View","Latitude":"41.9395","Longitude":"-87.6638","Frequency":"3636","Popularity":"126","Inflow":"1826","Outflow":"1920"},{"StationId":"156","StationName":"Clark St & Wellington Ave","Community":"Lake View","Latitude":"41.9365","Longitude":"-87.6475","Frequency":"6325","Popularity":"70","Inflow":"3080","Outflow":"3355"},{"StationId":"157","StationName":"Lake Shore Dr & Wellington Ave","Community":"Lake View","Latitude":"41.9367","Longitude":"-87.6368","Frequency":"8456","Popularity":"55","Inflow":"4347","Outflow":"4696"},{"StationId":"158","StationName":"Milwaukee Ave & Wabansia Ave","Community":"West Town","Latitude":"41.9126","Longitude":"-87.6814","Frequency":"3040","Popularity":"146","Inflow":"1556","Outflow":"1548"},{"StationId":"159","StationName":"Claremont Ave & Hirsch St","Community":"West Town","Latitude":"41.9078","Longitude":"-87.6859","Frequency":"1065","Popularity":"240","Inflow":"615","Outflow":"479"},{"StationId":"160","StationName":"Campbell Ave & North Ave","Community":"West Town","Latitude":"41.9105","Longitude":"-87.6896","Frequency":"1366","Popularity":"217","Inflow":"706","Outflow":"731"},{"StationId":"162","StationName":"Damen Ave & Wellington Ave","Community":"North Center","Latitude":"41.9359","Longitude":"-87.6784","Frequency":"2581","Popularity":"161","Inflow":"1240","Outflow":"1405"},{"StationId":"163","StationName":"Paulina St & Diversey Pkwy","Community":"Lincoln Park","Latitude":"41.9319","Longitude":"-87.6708","Frequency":"1497","Popularity":"208","Inflow":"762","Outflow":"784"},{"StationId":"164","StationName":"Franklin St & Lake St","Community":"The Loop","Latitude":"41.8858","Longitude":"-87.6355","Frequency":"8680","Popularity":"53","Inflow":"4805","Outflow":"3951"},{"StationId":"165","StationName":"Clark St & Grace St","Community":"Lake View","Latitude":"41.9508","Longitude":"-87.6592","Frequency":"4804","Popularity":"104","Inflow":"2492","Outflow":"2503"},{"StationId":"166","StationName":"Ashland Ave & Wrightwood Ave","Community":"Lincoln Park","Latitude":"41.9288","Longitude":"-87.6685","Frequency":"2150","Popularity":"172","Inflow":"1105","Outflow":"1117"},{"StationId":"167","StationName":"Damen Ave & Coulter St","Community":"Lower West Side","Latitude":"41.8492","Longitude":"-87.6756","Frequency":"205","Popularity":"295","Inflow":"100","Outflow":"128"},{"StationId":"168","StationName":"Michigan Ave & 14th St","Community":"Near South Side","Latitude":"41.8641","Longitude":"-87.6237","Frequency":"5682","Popularity":"85","Inflow":"2875","Outflow":"3010"},{"StationId":"169","StationName":"Canal St & Harrison St","Community":"Near West Side","Latitude":"41.8743","Longitude":"-87.6396","Frequency":"2597","Popularity":"160","Inflow":"1433","Outflow":"1199"},{"StationId":"170","StationName":"Clinton St & 18th St","Community":"Lower West Side","Latitude":"41.8579","Longitude":"-87.6408","Frequency":"1399","Popularity":"214","Inflow":"718","Outflow":"710"},{"StationId":"171","StationName":"May St & Cullerton St","Community":"Lower West Side","Latitude":"41.8551","Longitude":"-87.6541","Frequency":"401","Popularity":"287","Inflow":"206","Outflow":"211"},{"StationId":"173","StationName":"Mies van der Rohe Way & Chicago Ave","Community":"Near North Side","Latitude":"41.8969","Longitude":"-87.6217","Frequency":"10451","Popularity":"44","Inflow":"5275","Outflow":"5515"},{"StationId":"174","StationName":"Canal St & Madison St","Community":"Near West Side","Latitude":"41.8821","Longitude":"-87.6398","Frequency":"16938","Popularity":"12","Inflow":"8028","Outflow":"9008"},{"StationId":"175","StationName":"Wells St & Polk St","Community":"The Loop","Latitude":"41.8724","Longitude":"-87.6335","Frequency":"4606","Popularity":"105","Inflow":"2465","Outflow":"2230"},{"StationId":"176","StationName":"Clark St & Elm St","Community":"Near North Side","Latitude":"41.9032","Longitude":"-87.6313","Frequency":"11645","Popularity":"36","Inflow":"5846","Outflow":"6064"},{"StationId":"177","StationName":"Theater on the Lake","Community":"Lincoln Park","Latitude":"41.9263","Longitude":"-87.6308","Frequency":"17710","Popularity":"11","Inflow":"9082","Outflow":"9571"},{"StationId":"178","StationName":"State St & 19th St","Community":"Near West Side","Latitude":"41.8566","Longitude":"-87.6275","Frequency":"2376","Popularity":"166","Inflow":"1290","Outflow":"1151"},{"StationId":"179","StationName":"Martin Luther King Dr & Oakwood Blvd","Community":"Grand Boulevard","Latitude":"41.8226","Longitude":"-87.6161","Frequency":"1385","Popularity":"216","Inflow":"733","Outflow":"727"},{"StationId":"181","StationName":"LaSalle St & Illinois St","Community":"Near North Side","Latitude":"41.8908","Longitude":"-87.6321","Frequency":"12994","Popularity":"25","Inflow":"6406","Outflow":"6737"},{"StationId":"183","StationName":"Damen Ave & Augusta Blvd","Community":"West Town","Latitude":"41.8997","Longitude":"-87.6772","Frequency":"3967","Popularity":"117","Inflow":"2112","Outflow":"1940"},{"StationId":"184","StationName":"State St & 35th St","Community":"Douglas","Latitude":"41.831","Longitude":"-87.6269","Frequency":"1328","Popularity":"221","Inflow":"740","Outflow":"650"},{"StationId":"185","StationName":"Stave St & Armitage Ave","Community":"Logan Square","Latitude":"41.9177","Longitude":"-87.6914","Frequency":"1463","Popularity":"210","Inflow":"755","Outflow":"756"},{"StationId":"186","StationName":"Ogden Ave & Race Ave","Community":"West Town","Latitude":"41.8918","Longitude":"-87.6588","Frequency":"3192","Popularity":"142","Inflow":"1580","Outflow":"1653"},{"StationId":"188","StationName":"Greenview Ave & Fullerton Ave","Community":"Lincoln Park","Latitude":"41.9253","Longitude":"-87.6658","Frequency":"2730","Popularity":"153","Inflow":"1371","Outflow":"1428"},{"StationId":"190","StationName":"Southport Ave & Wrightwood Ave","Community":"Lincoln Park","Latitude":"41.9289","Longitude":"-87.6632","Frequency":"3750","Popularity":"123","Inflow":"1987","Outflow":"1828"},{"StationId":"191","StationName":"Canal St & Monroe St","Community":"Near West Side","Latitude":"41.8807","Longitude":"-87.6395","Frequency":"6978","Popularity":"67","Inflow":"4190","Outflow":"2846"},{"StationId":"192","StationName":"Canal St & Adams St","Community":"Near West Side","Latitude":"41.8793","Longitude":"-87.6399","Frequency":"12361","Popularity":"30","Inflow":"6435","Outflow":"6009"},{"StationId":"193","StationName":"State St & 29th St","Community":"Douglas","Latitude":"41.8417","Longitude":"-87.6269","Frequency":"295","Popularity":"292","Inflow":"149","Outflow":"174"},{"StationId":"194","StationName":"Wabash Ave & Wacker Pl","Community":"The Loop","Latitude":"41.8869","Longitude":"-87.626","Frequency":"7061","Popularity":"66","Inflow":"3789","Outflow":"3475"},{"StationId":"195","StationName":"Columbus Dr & Randolph St","Community":"The Loop","Latitude":"41.8847","Longitude":"-87.6195","Frequency":"10626","Popularity":"43","Inflow":"6188","Outflow":"4737"},{"StationId":"196","StationName":"Cityfront Plaza & N Water St","Community":"Near North Side","Latitude":"41.8899","Longitude":"-87.622","Frequency":"6250","Popularity":"73","Inflow":"3258","Outflow":"3127"},{"StationId":"197","StationName":"Michigan Ave & Madison St","Community":"Chicago Loop","Latitude":"41.8821","Longitude":"-87.6251","Frequency":"5430","Popularity":"90","Inflow":"3264","Outflow":"2260"},{"StationId":"198","StationName":"Halsted St & Madison St","Community":"Near West Side","Latitude":"41.8817","Longitude":"-87.6478","Frequency":"5988","Popularity":"77","Inflow":"2849","Outflow":"3211"},{"StationId":"199","StationName":"Wabash Ave & Grand Ave","Community":"Near North Side","Latitude":"41.8917","Longitude":"-87.6269","Frequency":"11631","Popularity":"37","Inflow":"5858","Outflow":"6029"},{"StationId":"200","StationName":"King Dr & 47th St","Community":"Grand Boulevard","Latitude":"41.8099","Longitude":"-87.6163","Frequency":"363","Popularity":"288","Inflow":"216","Outflow":"207"},{"StationId":"201","StationName":"Indiana Ave & 40th St","Community":"Grand Boulevard","Latitude":"41.8217","Longitude":"-87.6216","Frequency":"234","Popularity":"294","Inflow":"122","Outflow":"137"},{"StationId":"202","StationName":"Halsted St & 18th St","Community":"Lower West Side","Latitude":"41.8575","Longitude":"-87.6463","Frequency":"1342","Popularity":"219","Inflow":"726","Outflow":"631"},{"StationId":"203","StationName":"Western Ave & 21st St","Community":"Lower West Side","Latitude":"41.8539","Longitude":"-87.6852","Frequency":"434","Popularity":"285","Inflow":"218","Outflow":"242"},{"StationId":"204","StationName":"Prairie Ave & Garfield Blvd","Community":"Washington Park","Latitude":"41.7949","Longitude":"-87.6187","Frequency":"489","Popularity":"278","Inflow":"239","Outflow":"294"},{"StationId":"205","StationName":"Paulina St & 18th St","Community":"Lower West Side","Latitude":"41.8579","Longitude":"-87.6687","Frequency":"1250","Popularity":"225","Inflow":"619","Outflow":"657"},{"StationId":"206","StationName":"Halsted St & Archer Ave","Community":"Bridgeport","Latitude":"41.8472","Longitude":"-87.6468","Frequency":"1415","Popularity":"212","Inflow":"694","Outflow":"756"},{"StationId":"207","StationName":"Emerald Ave & 28th St","Community":"Bridgeport","Latitude":"41.8436","Longitude":"-87.6454","Frequency":"808","Popularity":"261","Inflow":"416","Outflow":"441"},{"StationId":"208","StationName":"Ashland Ave & 21st St","Community":"Lower West Side","Latitude":"41.8538","Longitude":"-87.6659","Frequency":"303","Popularity":"291","Inflow":"143","Outflow":"165"},{"StationId":"209","StationName":"Normal Ave & Archer Ave","Community":"Armour Square","Latitude":"41.8495","Longitude":"-87.6406","Frequency":"744","Popularity":"264","Inflow":"425","Outflow":"345"},{"StationId":"210","StationName":"Ashland Ave & Division St","Community":"West Town","Latitude":"41.9034","Longitude":"-87.6693","Frequency":"5504","Popularity":"88","Inflow":"2771","Outflow":"2811"},{"StationId":"211","StationName":"St Clair St & Erie St","Community":"Near North Side","Latitude":"41.8944","Longitude":"-87.6227","Frequency":"9264","Popularity":"50","Inflow":"4476","Outflow":"4952"},{"StationId":"212","StationName":"Wells St & Hubbard St","Community":"Near North Side","Latitude":"41.8899","Longitude":"-87.6343","Frequency":"5314","Popularity":"94","Inflow":"2759","Outflow":"2618"},{"StationId":"213","StationName":"Leavitt St & North Ave","Community":"West Town","Latitude":"41.9102","Longitude":"-87.6823","Frequency":"1399","Popularity":"215","Inflow":"747","Outflow":"677"},{"StationId":"214","StationName":"Damen Ave & Grand Ave","Community":"West Town","Latitude":"41.8912","Longitude":"-87.6769","Frequency":"2524","Popularity":"164","Inflow":"1316","Outflow":"1260"},{"StationId":"215","StationName":"Damen Ave & Madison St","Community":"Near West Side","Latitude":"41.8814","Longitude":"-87.6749","Frequency":"1177","Popularity":"232","Inflow":"640","Outflow":"594"},{"StationId":"216","StationName":"California Ave & Division St","Community":"West Town","Latitude":"41.903","Longitude":"-87.6975","Frequency":"2062","Popularity":"176","Inflow":"980","Outflow":"1175"},{"StationId":"217","StationName":"May St & Fulton St","Community":"Near West Side","Latitude":"41.8868","Longitude":"-87.656","Frequency":"2714","Popularity":"154","Inflow":"1409","Outflow":"1347"},{"StationId":"218","StationName":"Wells St & 19th St","Community":"Armour Square","Latitude":"41.8568","Longitude":"-87.6339","Frequency":"584","Popularity":"270","Inflow":"360","Outflow":"309"},{"StationId":"219","StationName":"Damen Ave & Cortland St","Community":"Logan Square","Latitude":"41.916","Longitude":"-87.6774","Frequency":"3299","Popularity":"136","Inflow":"1670","Outflow":"1683"},{"StationId":"220","StationName":"Hampden Ct & Diversey Pkwy","Community":"Lake View","Latitude":"41.9326","Longitude":"-87.6424","Frequency":"9123","Popularity":"52","Inflow":"4354","Outflow":"4953"},{"StationId":"222","StationName":"Milwaukee Ave & Rockwell St","Community":"Logan Square","Latitude":"41.9202","Longitude":"-87.693","Frequency":"982","Popularity":"247","Inflow":"503","Outflow":"520"},{"StationId":"223","StationName":"Clifton Ave & Armitage Ave","Community":"Lincoln Park","Latitude":"41.9182","Longitude":"-87.6569","Frequency":"3340","Popularity":"134","Inflow":"1702","Outflow":"1723"},{"StationId":"224","StationName":"Halsted St & Willow St","Community":"Lincoln Park","Latitude":"41.9138","Longitude":"-87.6488","Frequency":"2559","Popularity":"163","Inflow":"1282","Outflow":"1316"},{"StationId":"225","StationName":"Halsted St & Dickens Ave","Community":"Lincoln Park","Latitude":"41.9199","Longitude":"-87.6488","Frequency":"3227","Popularity":"140","Inflow":"1636","Outflow":"1643"},{"StationId":"226","StationName":"Racine Ave & Belmont Ave","Community":"Lake View","Latitude":"41.9397","Longitude":"-87.6589","Frequency":"2599","Popularity":"159","Inflow":"1343","Outflow":"1313"},{"StationId":"227","StationName":"Southport Ave & Waveland Ave","Community":"Lake View","Latitude":"41.9482","Longitude":"-87.6639","Frequency":"4056","Popularity":"114","Inflow":"2011","Outflow":"2145"},{"StationId":"228","StationName":"Damen Ave & Melrose Ave","Community":"North Center","Latitude":"41.9406","Longitude":"-87.6785","Frequency":"1769","Popularity":"195","Inflow":"892","Outflow":"919"},{"StationId":"229","StationName":"Southport Ave & Roscoe St","Community":"Lake View","Latitude":"41.9437","Longitude":"-87.664","Frequency":"3973","Popularity":"116","Inflow":"1926","Outflow":"2105"},{"StationId":"230","StationName":"Lincoln Ave & Roscoe St","Community":"Lake View","Latitude":"41.9433","Longitude":"-87.671","Frequency":"3567","Popularity":"127","Inflow":"1661","Outflow":"1977"},{"StationId":"231","StationName":"Sheridan Rd & Montrose Ave","Community":"Uptown","Latitude":"41.9617","Longitude":"-87.6546","Frequency":"3462","Popularity":"130","Inflow":"1824","Outflow":"1883"},{"StationId":"232","StationName":"Pine Grove Ave & Waveland Ave","Community":"Lake View","Latitude":"41.9493","Longitude":"-87.6463","Frequency":"5227","Popularity":"98","Inflow":"2744","Outflow":"2667"},{"StationId":"233","StationName":"Sangamon St & Washington Blvd","Community":"Lake View","Latitude":"41.883","Longitude":"-87.6511","Frequency":"3404","Popularity":"131","Inflow":"1797","Outflow":"1651"},{"StationId":"234","StationName":"Clark St & Montrose Ave","Community":"Uptown","Latitude":"41.9616","Longitude":"-87.666","Frequency":"1851","Popularity":"193","Inflow":"914","Outflow":"974"},{"StationId":"236","StationName":"Sedgwick St & Schiller St","Community":"Near North Side","Latitude":"41.9076","Longitude":"-87.6385","Frequency":"1184","Popularity":"231","Inflow":"576","Outflow":"622"},{"StationId":"237","StationName":"Martin Luther King Dr & 29th St","Community":"Douglas","Latitude":"41.8421","Longitude":"-87.617","Frequency":"1202","Popularity":"229","Inflow":"665","Outflow":"623"},{"StationId":"238","StationName":"Ravenswood Ave & Montrose Ave","Community":"Lake View","Latitude":"41.9616","Longitude":"-87.6744","Frequency":"1592","Popularity":"201","Inflow":"832","Outflow":"820"},{"StationId":"239","StationName":"Western Ave & Leland Ave","Community":"Lincoln Square","Latitude":"41.9666","Longitude":"-87.6885","Frequency":"1939","Popularity":"188","Inflow":"970","Outflow":"1022"},{"StationId":"240","StationName":"Sheridan Rd & Irving Park Rd","Community":"Lake View","Latitude":"41.9542","Longitude":"-87.6544","Frequency":"4461","Popularity":"106","Inflow":"2389","Outflow":"2164"},{"StationId":"241","StationName":"Morgan St & Polk St","Community":"Near West Side","Latitude":"41.8717","Longitude":"-87.651","Frequency":"3496","Popularity":"128","Inflow":"1749","Outflow":"1793"},{"StationId":"242","StationName":"Damen Ave & Leland Ave","Community":"Lincoln Square","Latitude":"41.9671","Longitude":"-87.679","Frequency":"2033","Popularity":"178","Inflow":"1070","Outflow":"1033"},{"StationId":"243","StationName":"Lincoln Ave & Leavitt St","Community":"North Center","Latitude":"41.9624","Longitude":"-87.6841","Frequency":"2005","Popularity":"182","Inflow":"1004","Outflow":"1070"},{"StationId":"244","StationName":"Ravenswood Ave & Irving Park Rd","Community":"North Center","Latitude":"41.9547","Longitude":"-87.6739","Frequency":"2015","Popularity":"181","Inflow":"1007","Outflow":"1058"},{"StationId":"245","StationName":"Clarendon Ave & Junior Ter","Community":"Uptown","Latitude":"41.961","Longitude":"-87.6496","Frequency":"2136","Popularity":"173","Inflow":"1050","Outflow":"1170"},{"StationId":"246","StationName":"Ashland Ave & Belle Plaine Ave","Community":"Lake View","Latitude":"41.9561","Longitude":"-87.6689","Frequency":"1005","Popularity":"245","Inflow":"536","Outflow":"489"},{"StationId":"247","StationName":"Shore Drive & 55th St","Community":"Hyde Park","Latitude":"41.7952","Longitude":"-87.5807","Frequency":"1975","Popularity":"187","Inflow":"1127","Outflow":"1136"},{"StationId":"248","StationName":"Woodlawn Ave & 55th St","Community":"Hyde Park","Latitude":"41.7953","Longitude":"-87.5965","Frequency":"1558","Popularity":"203","Inflow":"846","Outflow":"822"},{"StationId":"249","StationName":"Montrose Harbor","Community":"Uptown","Latitude":"41.964","Longitude":"-87.6382","Frequency":"4375","Popularity":"107","Inflow":"2464","Outflow":"2480"},{"StationId":"250","StationName":"Ashland Ave & Wellington Ave","Community":"Lake View","Latitude":"41.9361","Longitude":"-87.6698","Frequency":"2654","Popularity":"158","Inflow":"1352","Outflow":"1341"},{"StationId":"251","StationName":"Clarendon Ave & Leland Ave","Community":"Uptown","Latitude":"41.968","Longitude":"-87.65","Frequency":"1939","Popularity":"189","Inflow":"983","Outflow":"1081"},{"StationId":"252","StationName":"Greenwood Ave & 47th St","Community":"Kenwood","Latitude":"41.8098","Longitude":"-87.5994","Frequency":"1600","Popularity":"200","Inflow":"821","Outflow":"841"},{"StationId":"253","StationName":"Clifton Ave & Lawrence Ave","Community":"O'Hare","Latitude":"41.9689","Longitude":"-87.6589","Frequency":"952","Popularity":"248","Inflow":"464","Outflow":"511"},{"StationId":"254","StationName":"Pine Grove Ave & Irving Park Rd","Community":"Lake View","Latitude":"41.9544","Longitude":"-87.648","Frequency":"2813","Popularity":"152","Inflow":"1392","Outflow":"1482"},{"StationId":"255","StationName":"Indiana Ave & Roosevelt Rd","Community":"The Loop","Latitude":"41.8679","Longitude":"-87.623","Frequency":"7590","Popularity":"61","Inflow":"3904","Outflow":"3871"},{"StationId":"256","StationName":"Broadway & Sheridan Rd","Community":"Uptown","Latitude":"41.9528","Longitude":"-87.65","Frequency":"1528","Popularity":"205","Inflow":"806","Outflow":"752"},{"StationId":"257","StationName":"Lincoln Ave & Waveland Ave","Community":"North Center","Latitude":"41.9491","Longitude":"-87.6751","Frequency":"1499","Popularity":"207","Inflow":"710","Outflow":"822"},{"StationId":"258","StationName":"Logan Blvd & Elston Ave","Community":"Logan Square","Latitude":"41.9306","Longitude":"-87.6851","Frequency":"1300","Popularity":"222","Inflow":"645","Outflow":"674"},{"StationId":"259","StationName":"California Ave & Francis Pl","Community":"Logan Square","Latitude":"41.9185","Longitude":"-87.6972","Frequency":"1075","Popularity":"239","Inflow":"527","Outflow":"570"},{"StationId":"260","StationName":"Kedzie Ave & Milwaukee Ave","Community":"Logan Square","Latitude":"41.9296","Longitude":"-87.7079","Frequency":"2005","Popularity":"183","Inflow":"934","Outflow":"1119"},{"StationId":"261","StationName":"Hermitage Ave & Polk St","Community":"Near West Side","Latitude":"41.8715","Longitude":"-87.6699","Frequency":"1991","Popularity":"184","Inflow":"952","Outflow":"1073"},{"StationId":"262","StationName":"Halsted St & 37th St","Community":"Near West Side","Latitude":"41.8271","Longitude":"-87.6458","Frequency":"183","Popularity":"296","Inflow":"100","Outflow":"94"},{"StationId":"263","StationName":"Rhodes Ave & 32nd St","Community":"Douglas","Latitude":"41.8362","Longitude":"-87.6135","Frequency":"483","Popularity":"279","Inflow":"262","Outflow":"256"},{"StationId":"264","StationName":"Stetson Ave & South Water St","Community":"The Loop","Latitude":"41.8868","Longitude":"-87.6223","Frequency":"3021","Popularity":"147","Inflow":"1769","Outflow":"1325"},{"StationId":"265","StationName":"Cottage Grove Ave & Oakwood Blvd","Community":"Oakland","Latitude":"41.823","Longitude":"-87.6071","Frequency":"426","Popularity":"286","Inflow":"192","Outflow":"259"},{"StationId":"267","StationName":"Lake Park Ave & 47th St","Community":"Kenwood","Latitude":"41.8094","Longitude":"-87.5919","Frequency":"559","Popularity":"274","Inflow":"295","Outflow":"299"},{"StationId":"268","StationName":"Lake Shore Dr & North Blvd","Community":"Near North Side","Latitude":"41.9117","Longitude":"-87.6268","Frequency":"5849","Popularity":"80","Inflow":"2984","Outflow":"3084"},{"StationId":"271","StationName":"Cottage Grove Ave & 43rd St","Community":"Kenwood","Latitude":"41.8165","Longitude":"-87.6066","Frequency":"114","Popularity":"297","Inflow":"62","Outflow":"58"},{"StationId":"272","StationName":"Indiana Ave & 31st St","Community":"Douglas","Latitude":"41.8388","Longitude":"-87.6219","Frequency":"468","Popularity":"281","Inflow":"249","Outflow":"233"},{"StationId":"273","StationName":"Michigan Ave & 18th St","Community":"Near South Side","Latitude":"41.8579","Longitude":"-87.6236","Frequency":"3048","Popularity":"145","Inflow":"1546","Outflow":"1547"},{"StationId":"274","StationName":"Racine Ave & 15th St","Community":"Near West Side","Latitude":"41.8613","Longitude":"-87.6566","Frequency":"756","Popularity":"262","Inflow":"406","Outflow":"368"},{"StationId":"275","StationName":"Ashland Ave & 13th St","Community":"Near West Side","Latitude":"41.8652","Longitude":"-87.6665","Frequency":"355","Popularity":"289","Inflow":"172","Outflow":"185"},{"StationId":"276","StationName":"California Ave & North Ave","Community":"West Town","Latitude":"41.9104","Longitude":"-87.6972","Frequency":"1043","Popularity":"242","Inflow":"576","Outflow":"518"},{"StationId":"277","StationName":"Ashland Ave & Grand Ave","Community":"West Town","Latitude":"41.8911","Longitude":"-87.6666","Frequency":"863","Popularity":"257","Inflow":"483","Outflow":"393"},{"StationId":"278","StationName":"Wallace Ave & 35th St","Community":"Bridgeport","Latitude":"41.8306","Longitude":"-87.6413","Frequency":"281","Popularity":"293","Inflow":"133","Outflow":"163"},{"StationId":"279","StationName":"Halsted St & 35th St","Community":"Bridgeport","Latitude":"41.8307","Longitude":"-87.6472","Frequency":"2069","Popularity":"175","Inflow":"1001","Outflow":"1099"},{"StationId":"280","StationName":"Morgan St & 31st St","Community":"Bridgeport","Latitude":"41.8378","Longitude":"-87.6511","Frequency":"526","Popularity":"276","Inflow":"258","Outflow":"290"},{"StationId":"281","StationName":"Western Ave & 24th St","Community":"Lower West Side","Latitude":"41.8485","Longitude":"-87.6851","Frequency":"79","Popularity":"298","Inflow":"38","Outflow":"51"},{"StationId":"282","StationName":"Halsted St & Maxwell St","Community":"Near West Side","Latitude":"41.8646","Longitude":"-87.6469","Frequency":"1257","Popularity":"224","Inflow":"658","Outflow":"607"},{"StationId":"283","StationName":"LaSalle St & Jackson Blvd","Community":"The Loop","Latitude":"41.8782","Longitude":"-87.632","Frequency":"7951","Popularity":"57","Inflow":"4126","Outflow":"3879"},{"StationId":"284","StationName":"Michigan Ave & Jackson Blvd","Community":"The Loop","Latitude":"41.8778","Longitude":"-87.6241","Frequency":"5698","Popularity":"84","Inflow":"2968","Outflow":"2911"},{"StationId":"285","StationName":"Wood St & Grand Ave","Community":"West Town","Latitude":"41.8911","Longitude":"-87.672","Frequency":"1123","Popularity":"236","Inflow":"567","Outflow":"566"},{"StationId":"286","StationName":"Franklin St & Quincy St","Community":"The Loop","Latitude":"41.8787","Longitude":"-87.6348","Frequency":"3835","Popularity":"121","Inflow":"2186","Outflow":"1677"},{"StationId":"287","StationName":"Franklin St & Arcade Pl","Community":"The Loop","Latitude":"41.8815","Longitude":"-87.6352","Frequency":"7222","Popularity":"64","Inflow":"4042","Outflow":"3227"},{"StationId":"288","StationName":"Larrabee St & Armitage Ave","Community":"Lincoln Park","Latitude":"41.918","Longitude":"-87.6437","Frequency":"1502","Popularity":"206","Inflow":"795","Outflow":"732"},{"StationId":"289","StationName":"Wells St & Concord Ln","Community":"Lincoln Park","Latitude":"41.9122","Longitude":"-87.6347","Frequency":"5261","Popularity":"95","Inflow":"2662","Outflow":"2636"},{"StationId":"290","StationName":"Kedzie Ave & Palmer Ct","Community":"Logan Square","Latitude":"41.9215","Longitude":"-87.7073","Frequency":"822","Popularity":"260","Inflow":"450","Outflow":"400"},{"StationId":"291","StationName":"Wells St & Evergreen Ave","Community":"Near North Side","Latitude":"41.9067","Longitude":"-87.6348","Frequency":"3262","Popularity":"138","Inflow":"1658","Outflow":"1640"},{"StationId":"292","StationName":"Southport Ave & Clark St","Community":"Uptown","Latitude":"41.9571","Longitude":"-87.6642","Frequency":"718","Popularity":"265","Inflow":"356","Outflow":"378"},{"StationId":"293","StationName":"Broadway & Wilson Ave","Community":"Uptown","Latitude":"41.9655","Longitude":"-87.6572","Frequency":"945","Popularity":"252","Inflow":"496","Outflow":"477"},{"StationId":"294","StationName":"Broadway & Berwyn Ave","Community":"Edge Water","Latitude":"41.9784","Longitude":"-87.6598","Frequency":"1366","Popularity":"218","Inflow":"655","Outflow":"816"},{"StationId":"295","StationName":"Broadway & Argyle St","Community":"Uptown","Latitude":"41.973","Longitude":"-87.6596","Frequency":"950","Popularity":"249","Inflow":"448","Outflow":"533"},{"StationId":"296","StationName":"Broadway & Belmont Ave","Community":"Lake View","Latitude":"41.9401","Longitude":"-87.6455","Frequency":"1875","Popularity":"191","Inflow":"940","Outflow":"971"},{"StationId":"297","StationName":"Paulina St & Montrose Ave","Community":"Lake View","Latitude":"41.9615","Longitude":"-87.6714","Frequency":"633","Popularity":"268","Inflow":"329","Outflow":"312"},{"StationId":"298","StationName":"Lincoln Ave & Belle Plaine Ave","Community":"North Center","Latitude":"41.9559","Longitude":"-87.6793","Frequency":"877","Popularity":"255","Inflow":"414","Outflow":"470"},{"StationId":"299","StationName":"Halsted St & Roscoe St","Community":"Lake View","Latitude":"41.9437","Longitude":"-87.6489","Frequency":"1836","Popularity":"194","Inflow":"892","Outflow":"981"},{"StationId":"300","StationName":"Broadway & Barry Ave","Community":"Lake View","Latitude":"41.9377","Longitude":"-87.6441","Frequency":"3189","Popularity":"143","Inflow":"1597","Outflow":"1631"},{"StationId":"301","StationName":"Clark St & Schiller St","Community":"Near North Side","Latitude":"41.908","Longitude":"-87.6315","Frequency":"3306","Popularity":"135","Inflow":"1765","Outflow":"1589"},{"StationId":"302","StationName":"Sheffield Ave & Wrightwood Ave","Community":"Lincoln Park","Latitude":"41.9287","Longitude":"-87.6538","Frequency":"2032","Popularity":"179","Inflow":"1047","Outflow":"1009"},{"StationId":"303","StationName":"Broadway & Cornelia Ave","Community":"Lake View","Latitude":"41.9455","Longitude":"-87.646","Frequency":"2251","Popularity":"169","Inflow":"1140","Outflow":"1170"},{"StationId":"304","StationName":"Halsted St & Waveland Ave","Community":"Lake View","Latitude":"41.9494","Longitude":"-87.6496","Frequency":"2689","Popularity":"155","Inflow":"1402","Outflow":"1309"},{"StationId":"305","StationName":"Western Ave & Division St","Community":"West Town","Latitude":"41.9029","Longitude":"-87.6873","Frequency":"1146","Popularity":"234","Inflow":"582","Outflow":"584"},{"StationId":"306","StationName":"Sheridan Rd & Buena Ave","Community":"Uptown","Latitude":"41.9584","Longitude":"-87.6542","Frequency":"1232","Popularity":"228","Inflow":"660","Outflow":"615"},{"StationId":"307","StationName":"Southport Ave & Clybourn Ave","Community":"Lincoln Park","Latitude":"41.921","Longitude":"-87.6633","Frequency":"1550","Popularity":"204","Inflow":"743","Outflow":"819"},{"StationId":"308","StationName":"Seeley Ave & Roscoe St","Community":"North Center","Latitude":"41.9434","Longitude":"-87.6796","Frequency":"947","Popularity":"251","Inflow":"434","Outflow":"537"},{"StationId":"309","StationName":"Leavitt St & Armitage Ave","Community":"Logan Square","Latitude":"41.9178","Longitude":"-87.6824","Frequency":"949","Popularity":"250","Inflow":"505","Outflow":"463"},{"StationId":"310","StationName":"Damen Ave & Charleston St","Community":"Logan Square","Latitude":"41.9201","Longitude":"-87.6779","Frequency":"1245","Popularity":"227","Inflow":"609","Outflow":"658"},{"StationId":"311","StationName":"Lincoln Ave & Eastwood Ave","Community":"Lincoln Square","Latitude":"41.9658","Longitude":"-87.6865","Frequency":"1854","Popularity":"192","Inflow":"896","Outflow":"988"},{"StationId":"312","StationName":"Clarendon Ave & Gordon Ter","Community":"Uptown","Latitude":"41.9579","Longitude":"-87.6495","Frequency":"436","Popularity":"284","Inflow":"218","Outflow":"231"},{"StationId":"313","StationName":"Lakeview Ave & Fullerton Pkwy","Community":"Lincoln Park","Latitude":"41.9259","Longitude":"-87.639","Frequency":"3819","Popularity":"122","Inflow":"1971","Outflow":"1985"},{"StationId":"314","StationName":"Ravenswood Ave & Berteau Ave","Community":"Lake View","Latitude":"41.9579","Longitude":"-87.6736","Frequency":"824","Popularity":"258","Inflow":"447","Outflow":"393"},{"StationId":"315","StationName":"Leavitt St & Hirsch St","Community":"West Town","Latitude":"41.9067","Longitude":"-87.6828","Frequency":"593","Popularity":"269","Inflow":"299","Outflow":"300"},{"StationId":"316","StationName":"Damen Ave & Sunnyside Ave","Community":"Lincoln Square","Latitude":"41.9632","Longitude":"-87.6793","Frequency":"554","Popularity":"275","Inflow":"276","Outflow":"291"},{"StationId":"317","StationName":"Wood St & Taylor St","Community":"Near West Side","Latitude":"41.8692","Longitude":"-87.671","Frequency":"1019","Popularity":"244","Inflow":"490","Outflow":"533"},{"StationId":"318","StationName":"Southport Ave & Irving Park Rd","Community":"Lake View","Latitude":"41.9542","Longitude":"-87.6644","Frequency":"1403","Popularity":"213","Inflow":"725","Outflow":"703"},{"StationId":"319","StationName":"Greenview Ave & Diversey Pkwy","Community":"Lincoln Park","Latitude":"41.9326","Longitude":"-87.6659","Frequency":"1114","Popularity":"237","Inflow":"543","Outflow":"581"},{"StationId":"320","StationName":"Loomis St & Lexington St","Community":"Near West Side","Latitude":"41.8722","Longitude":"-87.6615","Frequency":"1190","Popularity":"230","Inflow":"627","Outflow":"596"},{"StationId":"321","StationName":"Wabash Ave & 8th St","Community":"The Loop","Latitude":"41.872","Longitude":"-87.6261","Frequency":"3723","Popularity":"124","Inflow":"1888","Outflow":"1917"},{"StationId":"322","StationName":"Kimbark Ave & 53rd St","Community":"Hyde Park","Latitude":"41.7996","Longitude":"-87.5947","Frequency":"1003","Popularity":"246","Inflow":"515","Outflow":"532"},{"StationId":"323","StationName":"Sheridan Rd & Lawrence Ave","Community":"Uptown","Latitude":"41.9695","Longitude":"-87.6547","Frequency":"655","Popularity":"267","Inflow":"333","Outflow":"360"},{"StationId":"324","StationName":"Stockton Dr & Wrightwood Ave","Community":"Lincoln Park","Latitude":"41.9313","Longitude":"-87.6387","Frequency":"1420","Popularity":"211","Inflow":"734","Outflow":"717"},{"StationId":"325","StationName":"Clark St & Winnemac Ave","Community":"Uptown","Latitude":"41.9734","Longitude":"-87.6684","Frequency":"1614","Popularity":"198","Inflow":"803","Outflow":"846"},{"StationId":"326","StationName":"Clark St & Leland Ave","Community":"Uptown","Latitude":"41.9671","Longitude":"-87.6674","Frequency":"940","Popularity":"253","Inflow":"488","Outflow":"473"},{"StationId":"327","StationName":"Sheffield Ave & Webster Ave","Community":"Lincoln Park","Latitude":"41.9217","Longitude":"-87.6537","Frequency":"2050","Popularity":"177","Inflow":"1043","Outflow":"1032"},{"StationId":"328","StationName":"Ellis Ave & 58th St","Community":"Kenwood","Latitude":"41.7887","Longitude":"-87.6013","Frequency":"2471","Popularity":"165","Inflow":"1251","Outflow":"1278"},{"StationId":"329","StationName":"Lake Shore Dr & Diversey Pkwy","Community":"Lincoln Park","Latitude":"41.9327","Longitude":"-87.6363","Frequency":"1707","Popularity":"197","Inflow":"856","Outflow":"943"},{"StationId":"330","StationName":"Lincoln Ave & Addison St","Community":"Lake View","Latitude":"41.9462","Longitude":"-87.6733","Frequency":"824","Popularity":"259","Inflow":"399","Outflow":"435"},{"StationId":"331","StationName":"Halsted St & Blackhawk St","Community":"Near North Side","Latitude":"41.9085","Longitude":"-87.6486","Frequency":"1468","Popularity":"209","Inflow":"758","Outflow":"723"},{"StationId":"332","StationName":"Halsted St & Diversey Pkwy","Community":"Lincoln Park","Latitude":"41.9333","Longitude":"-87.6488","Frequency":"1988","Popularity":"185","Inflow":"987","Outflow":"1023"},{"StationId":"333","StationName":"Ashland Ave & Blackhawk St","Community":"West Town","Latitude":"41.9071","Longitude":"-87.6673","Frequency":"1051","Popularity":"241","Inflow":"492","Outflow":"563"},{"StationId":"334","StationName":"Lake Shore Dr & Belmont Ave","Community":"Lake View","Latitude":"41.9408","Longitude":"-87.6392","Frequency":"2372","Popularity":"167","Inflow":"1185","Outflow":"1267"},{"StationId":"335","StationName":"Calumet Ave & 35th St","Community":"Douglas","Latitude":"41.8314","Longitude":"-87.618","Frequency":"65","Popularity":"299","Inflow":"33","Outflow":"33"},{"StationId":"336","StationName":"Cottage Grove Ave & 47th St","Community":"Kenwood","Latitude":"41.8099","Longitude":"-87.6068","Frequency":"55","Popularity":"300","Inflow":"36","Outflow":"30"},{"StationId":"337","StationName":"Clark St & Chicago Ave","Community":"Near North Side","Latitude":"41.8965","Longitude":"-87.6309","Frequency":"2022","Popularity":"180","Inflow":"1045","Outflow":"996"},{"StationId":"338","StationName":"Calumet Ave & 18th St","Community":"Near South Side","Latitude":"41.8576","Longitude":"-87.6194","Frequency":"2579","Popularity":"162","Inflow":"1332","Outflow":"1317"},{"StationId":"339","StationName":"Emerald Ave & 31st St","Community":"Bridgeport","Latitude":"41.8382","Longitude":"-87.6451","Frequency":"473","Popularity":"280","Inflow":"256","Outflow":"222"},{"StationId":"340","StationName":"Clark St & Wrightwood Ave","Community":"Lincoln Park","Latitude":"41.9295","Longitude":"-87.6431","Frequency":"1572","Popularity":"202","Inflow":"778","Outflow":"812"},{"StationId":"341","StationName":"Adler Planetarium","Community":"Near South Side","Latitude":"41.8661","Longitude":"-87.6073","Frequency":"2202","Popularity":"170","Inflow":"1181","Outflow":"1133"},{"StationId":"342","StationName":"Wolcott Ave & Polk St","Community":"Near West Side","Latitude":"41.8713","Longitude":"-87.6737","Frequency":"894","Popularity":"254","Inflow":"481","Outflow":"421"},{"StationId":"343","StationName":"Racine Ave & Wrightwood Ave","Community":"Lincoln Park","Latitude":"41.9289","Longitude":"-87.659","Frequency":"445","Popularity":"283","Inflow":"229","Outflow":"220"},{"StationId":"344","StationName":"Wolcott Ave & Lawrence Ave","Community":"Lincoln Square","Latitude":"41.9686","Longitude":"-87.6763","Frequency":"1176","Popularity":"233","Inflow":"608","Outflow":"573"},{"StationId":"345","StationName":"Lake Park Ave & 56th St","Community":"Hyde Park","Latitude":"41.7932","Longitude":"-87.5878","Frequency":"512","Popularity":"277","Inflow":"264","Outflow":"276"},{"StationId":"346","StationName":"Ada St & Washington Blvd","Community":"Near West Side","Latitude":"41.8828","Longitude":"-87.6612","Frequency":"1087","Popularity":"238","Inflow":"557","Outflow":"543"},{"StationId":"347","StationName":"Ashland Ave & Grace St","Community":"Lake View","Latitude":"41.9507","Longitude":"-87.6687","Frequency":"466","Popularity":"282","Inflow":"244","Outflow":"226"},{"StationId":"348","StationName":"California Ave & 21st St","Community":"South Lawndale","Latitude":"41.854","Longitude":"-87.6954","Frequency":"570","Popularity":"271","Inflow":"281","Outflow":"307"},{"StationId":"349","StationName":"Halsted St & Wrightwood Ave","Community":"Lincoln Park","Latitude":"41.9291","Longitude":"-87.6491","Frequency":"870","Popularity":"256","Inflow":"448","Outflow":"429"},{"StationId":"350","StationName":"Ashland Ave & Chicago Ave","Community":"West Town","Latitude":"41.896","Longitude":"-87.6677","Frequency":"2100","Popularity":"174","Inflow":"1035","Outflow":"1087"},{"StationId":"351","StationName":"Cottage Grove Ave & 51st St, T","Community":"Kenwood","Latitude":"41.803","Longitude":"-87.6066","Frequency":"561","Popularity":"273","Inflow":"295","Outflow":"280"}]